[
  {
    "exact_address": "Fågelsången 2B",
    "price": 2595000,
    "size": 36.0,
    "rooms": 1.0,
    "floor": 1,
    "monthly_fee": 1739,
    "price_per_sqm": 72083,
    "location": "Sundbyberg, Sundbybergs kommun",
    "has_elevator": true,
    "has_balcony": false,
    "latitude": 59.3645334,
    "longitude": 17.97028708355336
  },
  {
    "exact_address": "Hamngatan 11A",
    "price": 7495000,
    "size": 95.0,
    "rooms": 4.0,
    "floor": 7,
    "monthly_fee": 6465,
    "price_per_sqm": 78895,
    "location": "Bällsta strand, Sundbybergs kommun",
    "has_elevator": true,
    "has_balcony": true
  },
  {
    "exact_address": "Boplatsvägen 7",
    "price": 2795000,
    "size": 72.0,
    "rooms": 3.0,
    "floor": 1,
    "monthly_fee": 5793,
    "price_per_sqm": 38819,
    "location": "Brotorp/järvastaden, Sundbybergs kommun",
    "has_elevator": true,
    "has_balcony": false
  },
  {
    "exact_address": "Vintergatan 1",
    "price": 6195000,
    "size": 88.0,
    "rooms": 4.0,
    "floor": 1,
    "monthly_fee": 5223,
    "price_per_sqm": 70398,
    "location": "Centrala Sundbyberg, Sundbybergs kommun",
    "has_elevator": true,
    "has_balcony": false,
    "latitude": 59.3620933,
    "longitude": 17.9785773
  },
  {
    "exact_address": "Forskningsringen 84",
    "price": 2845000,
    "size": 71.0,
    "rooms": 3.0,
    "floor": 4,
    "monthly_fee": 4251,
    "price_per_sqm": 40070,
    "location": "Ursvik, Sundbybergs kommun",
    "has_elevator": true,
    "has_balcony": true,
    "latitude": 59.3813028,
    "longitude": 17.95113771458528
  },
  {
    "exact_address": "Starrbäcksgatan 11 A",
    "price": 2995000,
    "size": 51.0,
    "rooms": 2.0,
    "floor": 1,
    "monthly_fee": 3179,
    "price_per_sqm": 58725,
    "location": "Centrala Sundbyberg, Sundbybergs kommun",
    "has_elevator": true,
    "has_balcony": true,
    "latitude": 59.3665985,
    "longitude": 17.9620925
  },
  {
    "exact_address": "Rosengatan 8 vån 3/3!",
    "price": 2645000,
    "size": 31.0,
    "rooms": 2.0,
    "floor": 3,
    "monthly_fee": 2287,
    "price_per_sqm": 85323,
    "location": "Sundbyberg, Sundbybergs kommun",
    "has_elevator": true,
    "has_balcony": true
  },
  {
    "exact_address": "Kyrkogatan 7",
    "price": 2645000,
    "size": 37.8,
    "rooms": 2.0,
    "floor": 1,
    "monthly_fee": 2850,
    "price_per_sqm": 69974,
    "location": "Sundbyberg Centrum, Sundbybergs kommun",
    "has_elevator": true,
    "has_balcony": false
  },
  {
    "exact_address": "Ängsstigen 12",
    "price": 6695000,
    "size": 108.0,
    "rooms": 5.0,
    "floor": 4,
    "monthly_fee": 9223,
    "price_per_sqm": 61991,
    "location": "Centrala Sundbyberg, Sundbybergs kommun",
    "has_elevator": true,
    "has_balcony": true,
    "latitude": 59.366019,
    "longitude": 17.97562558877511
  },
  {
    "exact_address": "Mjölnerbacken 64, vån 4",
    "price": 1995000,
    "size": 47.0,
    "rooms": 2.0,
    "floor": 4,
    "monthly_fee": 2343,
    "price_per_sqm": 42447,
    "location": "Sundbyberg - Rissne, Sundbybergs kommun",
    "has_elevator": true,
    "has_balcony": true
  },
  {
    "exact_address": "Brotorpsvägen 9",
    "price": 2395000,
    "size": 46.0,
    "rooms": 2.0,
    "floor": 1,
    "monthly_fee": 3759,
    "price_per_sqm": 52065,
    "location": "Brotorp - Järvastaden, Sundbybergs kommun",
    "has_elevator": true,
    "has_balcony": false
  },
  {
    "exact_address": "Forskningsringen 88",
    "price": 1995000,
    "size": 38.0,
    "rooms": 2.0,
    "floor": 7,
    "monthly_fee": 3930,
    "price_per_sqm": 52500,
    "location": "Sundbyberg - Ursvik, Sundbybergs kommun",
    "has_elevator": true,
    "has_balcony": true,
    "latitude": 59.3812947,
    "longitude": 17.952498461210453
  },
  {
    "exact_address": "Milstensvägen 31",
    "price": 2495000,
    "size": 55.0,
    "rooms": 2.0,
    "floor": 2,
    "monthly_fee": 3084,
    "price_per_sqm": 45364,
    "location": "Ursvik, Sundbybergs kommun",
    "has_elevator": true,
    "has_balcony": true,
    "latitude": 59.38556235,
    "longitude": 17.9567322
  },
  {
    "exact_address": "Eliegatan 10",
    "price": 3195000,
    "size": 55.0,
    "rooms": 2.0,
    "floor": 3,
    "monthly_fee": 5587,
    "price_per_sqm": 58091,
    "location": "Sundbyberg, Sundbybergs kommun",
    "has_elevator": true,
    "has_balcony": true,
    "latitude": 59.36767,
    "longitude": 17.9627741
  },
  {
    "exact_address": "Gjuteribacken 8 B",
    "price": 2995000,
    "size": 54.0,
    "rooms": 2.0,
    "floor": 1,
    "monthly_fee": 4446,
    "price_per_sqm": 55463,
    "location": "Centrala Sundbyberg, Sundbybergs kommun",
    "has_elevator": false,
    "has_balcony": true,
    "latitude": 59.3591062,
    "longitude": 17.972842
  },
  {
    "exact_address": "Forskningsringen 87A",
    "price": 3495000,
    "size": 83.0,
    "rooms": 4.0,
    "floor": 1,
    "monthly_fee": 6392,
    "price_per_sqm": 42108,
    "location": "Sundbyberg - Ursvik, Sundbybergs kommun",
    "has_elevator": true,
    "has_balcony": false,
    "latitude": 59.3818173,
    "longitude": 17.9496186
  },
  {
    "exact_address": "Humblegatan 35",
    "price": 4295000,
    "size": 75.0,
    "rooms": 4.0,
    "floor": 1,
    "monthly_fee": 4383,
    "price_per_sqm": 57267,
    "location": "Centrala Sundbyberg, Sundbybergs kommun",
    "has_elevator": true,
    "has_balcony": true,
    "latitude": 59.357978,
    "longitude": 17.9704846
  },
  {
    "exact_address": "Starrbäcksgatan 18",
    "price": 3395000,
    "size": 65.0,
    "rooms": 2.0,
    "floor": 1,
    "monthly_fee": 3936,
    "price_per_sqm": 52231,
    "location": "Centrala Sundbyberg, Sundbybergs kommun",
    "has_elevator": true,
    "has_balcony": false,
    "latitude": 59.3669685,
    "longitude": 17.9629339
  },
  {
    "exact_address": "Ladugårdsgatan 10, Vån 6/6",
    "price": 1895000,
    "size": 41.5,
    "rooms": 1.5,
    "floor": 6,
    "monthly_fee": 4351,
    "price_per_sqm": 45663,
    "location": "Ursvik, Sundbybergs kommun",
    "has_elevator": true,
    "has_balcony": true
  },
  {
    "exact_address": "Brotorpsvägen 31",
    "price": 8795000,
    "size": 128.0,
    "rooms": 5.0,
    "floor": 1,
    "monthly_fee": 271,
    "location": "Brotorp - Järvastaden, Sundbybergs kommun",
    "has_elevator": false,
    "has_balcony": false
  },
  {
    "exact_address": "Stallgatan 14",
    "price": 5395000,
    "size": 133.0,
    "rooms": 5.0,
    "floor": 1,
    "monthly_fee": 8062,
    "price_per_sqm": 40564,
    "location": "Sundbyberg - Ursvik, Sundbybergs kommun",
    "has_elevator": true,
    "has_balcony": true,
    "latitude": 59.3856497,
    "longitude": 17.9452879
  },
  {
    "exact_address": "Starrbäcksgatan 9B",
    "price": 4790000,
    "size": 81.0,
    "rooms": 3.0,
    "floor": 1,
    "monthly_fee": 4055,
    "price_per_sqm": 59136,
    "location": "Centrala Sundbyberg, Sundbybergs kommun",
    "has_elevator": true,
    "has_balcony": true,
    "latitude": 59.3675309,
    "longitude": 17.9637011
  },
  {
    "exact_address": "Tulegatan 27B, 5/5 tr!",
    "price": 4995000,
    "size": 87.0,
    "rooms": 3.0,
    "floor": 5,
    "monthly_fee": 5821,
    "price_per_sqm": 57414,
    "location": "Centrala Sundbyberg, Sundbybergs kommun",
    "has_elevator": true,
    "has_balcony": true
  },
  {
    "exact_address": "Vasagatan 17B",
    "price": 2795000,
    "size": 35.0,
    "rooms": 1.5,
    "floor": 6,
    "monthly_fee": 2457,
    "price_per_sqm": 79857,
    "location": "Centrala Sundbyberg, Sundbybergs kommun",
    "has_elevator": true,
    "has_balcony": true,
    "latitude": 59.3618134,
    "longitude": 17.9656529
  },
  {
    "exact_address": "Löfströms allé 4A",
    "price": 4795000,
    "size": 76.0,
    "rooms": 3.0,
    "floor": 1,
    "monthly_fee": 4498,
    "price_per_sqm": 63092,
    "location": "Centrala Sundbyberg, Sundbybergs kommun",
    "has_elevator": true,
    "has_balcony": true,
    "latitude": 59.3635909,
    "longitude": 17.9594155
  },
  {
    "exact_address": "Örsvängen 3",
    "price": 3295000,
    "size": 74.0,
    "rooms": 3.0,
    "floor": 6,
    "monthly_fee": 3816,
    "price_per_sqm": 44527,
    "location": "Ör, Sundbybergs kommun",
    "has_elevator": true,
    "has_balcony": true,
    "latitude": 59.375828,
    "longitude": 17.9708514
  },
  {
    "exact_address": "Vegagatan 8",
    "price": 3995000,
    "size": 55.0,
    "rooms": 2.0,
    "floor": 2,
    "monthly_fee": 2191,
    "price_per_sqm": 72636,
    "location": "Centrala Sundbyberg, Sundbybergs kommun",
    "has_elevator": true,
    "has_balcony": true,
    "latitude": 59.36487345,
    "longitude": 17.9658692
  },
  {
    "exact_address": "Milstensvägen 31",
    "price": 2995000,
    "size": 76.0,
    "rooms": 3.0,
    "floor": 2,
    "monthly_fee": 4261,
    "price_per_sqm": 39408,
    "location": "Ursvik, Sundbybergs kommun",
    "has_elevator": true,
    "has_balcony": true,
    "latitude": 59.38556235,
    "longitude": 17.9567322
  },
  {
    "exact_address": "Albygatan 120",
    "price": 2695000,
    "size": 42.5,
    "rooms": 2.0,
    "floor": 3,
    "monthly_fee": 2674,
    "price_per_sqm": 63412,
    "location": "Lilla Alby, Sundbybergs kommun",
    "has_elevator": true,
    "has_balcony": true,
    "latitude": 59.3567864,
    "longitude": 17.9711546
  },
  {
    "exact_address": "Hamngatan 27A",
    "price": 2995000,
    "size": 44.5,
    "rooms": 2.0,
    "floor": 2,
    "monthly_fee": 2861,
    "price_per_sqm": 67303,
    "location": "Bällsta Bro - Sundbyberg, Sundbybergs kommun",
    "has_elevator": true,
    "has_balcony": true
  },
  {
    "exact_address": "Tulegatan 61 A",
    "price": 2395000,
    "size": 41.0,
    "rooms": 1.0,
    "floor": 4,
    "monthly_fee": 692,
    "price_per_sqm": 58415,
    "location": "Centrala Sundbyberg, Sundbybergs kommun",
    "has_elevator": false,
    "has_balcony": false,
    "latitude": 59.3676165,
    "longitude": 17.9654121
  },
  {
    "exact_address": "Kyrkogatan 2",
    "price": 1995000,
    "size": 24.0,
    "rooms": 1.0,
    "floor": 2,
    "monthly_fee": 1219,
    "price_per_sqm": 83125,
    "location": "Centrala Sundbyberg, Sundbybergs kommun",
    "has_elevator": false,
    "has_balcony": false,
    "latitude": 59.3637701,
    "longitude": 17.9704591
  },
  {
    "exact_address": "Ågatan 14",
    "price": 6795000,
    "size": 109.0,
    "rooms": 4.0,
    "floor": 1,
    "monthly_fee": 8106,
    "price_per_sqm": 62339,
    "location": "Sundbyberg, Sundbybergs kommun",
    "has_elevator": false,
    "has_balcony": false,
    "latitude": 59.3632922,
    "longitude": 17.9572953
  },
  {
    "exact_address": "Vasagatan 15A",
    "price": 3750000,
    "size": 51.0,
    "rooms": 2.0,
    "floor": 8,
    "monthly_fee": 3436,
    "price_per_sqm": 73529,
    "location": "Centrala Sundbyberg, Sundbybergs kommun",
    "has_elevator": true,
    "has_balcony": true,
    "latitude": 59.362421,
    "longitude": 17.9634087
  },
  {
    "exact_address": "Lötsjövägen 39",
    "price": 2795000,
    "size": 119.0,
    "rooms": 5.0,
    "floor": 1,
    "monthly_fee": 10941,
    "price_per_sqm": 23487,
    "location": "Hallonbergen, Sundbybergs kommun",
    "has_elevator": true,
    "has_balcony": false,
    "latitude": 59.3739151,
    "longitude": 17.9692395
  },
  {
    "exact_address": "Friluftsvägen 5 B, 2tr",
    "price": 2495000,
    "size": 37.0,
    "rooms": 1.5,
    "floor": 2,
    "monthly_fee": 2813,
    "price_per_sqm": 67432,
    "location": "Centrala Sundbyberg, Sundbybergs kommun",
    "has_elevator": false,
    "has_balcony": false
  },
  {
    "exact_address": "Duvkullavägen 36A",
    "price": 1850000,
    "size": 30.9,
    "rooms": 1.0,
    "floor": 1,
    "monthly_fee": 1807,
    "price_per_sqm": 59871,
    "location": "Sundbyberg - Duvbo, Sundbybergs kommun",
    "has_elevator": false,
    "has_balcony": true,
    "latitude": 59.3707321,
    "longitude": 17.948879
  },
  {
    "exact_address": "Skvadronsbacken 11",
    "price": 2895000,
    "size": 83.0,
    "rooms": 3.0,
    "floor": 1,
    "monthly_fee": 4453,
    "price_per_sqm": 34880,
    "location": "Sundbyberg - Rissne, Sundbybergs kommun",
    "has_elevator": true,
    "has_balcony": true,
    "latitude": 59.3740678,
    "longitude": 17.9429375
  },
  {
    "exact_address": "Oxenstiernas allé 22",
    "price": 3995000,
    "size": 105.0,
    "rooms": 4.0,
    "floor": 1,
    "monthly_fee": 7442,
    "price_per_sqm": 38048,
    "location": "Sundbyberg - Ursvik, Sundbybergs kommun",
    "has_elevator": true,
    "has_balcony": true,
    "latitude": 59.3817655,
    "longitude": 17.9451984
  },
  {
    "exact_address": "Örsvängen 13",
    "price": 2695000,
    "size": 69.0,
    "rooms": 3.0,
    "floor": 3,
    "monthly_fee": 3835,
    "price_per_sqm": 39058,
    "location": "Ör, Sundbybergs kommun",
    "has_elevator": true,
    "has_balcony": true,
    "latitude": 59.3760319,
    "longitude": 17.9764555
  },
  {
    "exact_address": "Rosengatan 8",
    "price": 3295000,
    "size": 43.0,
    "rooms": 2.0,
    "floor": 1,
    "monthly_fee": 2938,
    "price_per_sqm": 76628,
    "location": "Centrala Sundbyberg, Sundbybergs kommun",
    "has_elevator": true,
    "has_balcony": true,
    "latitude": 59.362787,
    "longitude": 17.9721429
  },
  {
    "exact_address": "Vintergatan 2C",
    "price": 3995000,
    "size": 55.0,
    "rooms": 2.0,
    "floor": 5,
    "monthly_fee": 4501,
    "price_per_sqm": 72636,
    "location": "Sundbyberg, Sundbybergs kommun",
    "has_elevator": true,
    "has_balcony": true,
    "latitude": 59.3615819,
    "longitude": 17.9785281
  },
  {
    "exact_address": "Svalgränd 8B, Vån 6/6",
    "price": 3995000,
    "size": 54.0,
    "rooms": 2.0,
    "floor": 6,
    "monthly_fee": 3369,
    "price_per_sqm": 73981,
    "location": "Centrala Sundbyberg, Sundbybergs kommun",
    "has_elevator": true,
    "has_balcony": true
  },
  {
    "exact_address": "Hallonbergsplan 6",
    "price": 2195000,
    "size": 55.5,
    "rooms": 2.0,
    "floor": 4,
    "monthly_fee": 3239,
    "price_per_sqm": 39550,
    "location": "Hallonbergen, Sundbybergs kommun",
    "has_elevator": false,
    "has_balcony": true,
    "latitude": 59.3758163,
    "longitude": 17.9707258
  },
  {
    "exact_address": "Brukshundsvägen 28",
    "price": 6495000,
    "size": 94.0,
    "rooms": 5.0,
    "floor": 3,
    "monthly_fee": 5366,
    "price_per_sqm": 69096,
    "location": "Sundbyberg, Sundbybergs kommun",
    "has_elevator": true,
    "has_balcony": true,
    "latitude": 59.3840533,
    "longitude": 17.9754369
  },
  {
    "exact_address": "Eliegatan 13",
    "price": 2395000,
    "size": 37.0,
    "rooms": 2.0,
    "floor": 1,
    "monthly_fee": 2283,
    "price_per_sqm": 64730,
    "location": "Centrala Sundbyberg, Sundbybergs kommun",
    "has_elevator": true,
    "has_balcony": false,
    "latitude": 59.36790705,
    "longitude": 17.961008088528054
  },
  {
    "exact_address": "Tulegatan 9",
    "price": 2995000,
    "size": 56.0,
    "rooms": 2.0,
    "floor": 1,
    "monthly_fee": 4151,
    "price_per_sqm": 53482,
    "location": "Centrala Sundbyberg, Sundbybergs kommun",
    "has_elevator": true,
    "has_balcony": true,
    "latitude": 59.3641977,
    "longitude": 17.9761023
  },
  {
    "exact_address": "Mönstringsvägen 3",
    "price": 3295000,
    "size": 81.0,
    "rooms": 3.0,
    "floor": 1,
    "monthly_fee": 6141,
    "price_per_sqm": 40679,
    "location": "Sundbyberg - Ursvik, Sundbybergs kommun",
    "has_elevator": true,
    "has_balcony": true,
    "latitude": 59.3859209,
    "longitude": 17.9455114
  },
  {
    "exact_address": "Hamngatan 13A",
    "price": 2750000,
    "size": 36.5,
    "rooms": 1.5,
    "floor": 3,
    "monthly_fee": 2860,
    "price_per_sqm": 75342,
    "location": "Sundbyberg, Sundbybergs kommun",
    "has_elevator": true,
    "has_balcony": true,
    "latitude": 59.3568894,
    "longitude": 17.9663003
  },
  {
    "exact_address": "Lötsjövägen 13",
    "price": 1795000,
    "size": 82.1,
    "rooms": 3.0,
    "floor": 1,
    "monthly_fee": 7542,
    "price_per_sqm": 21864,
    "location": "Sundbyberg, Sundbybergs kommun",
    "has_elevator": true,
    "has_balcony": true,
    "latitude": 59.3739151,
    "longitude": 17.9692395
  },
  {
    "exact_address": "Rosengatan 8, Lokal 01005",
    "price": 2450000,
    "size": 47.0,
    "rooms": 1.5,
    "floor": 1,
    "monthly_fee": 3646,
    "location": "Centrala Sundbyberg, Sundbybergs kommun",
    "has_elevator": false,
    "has_balcony": true
  }
]